[
  {
    "slug": "new-york-ny",
    "name": "New York City",
    "fullName": "New York City, NY",
    "state": "new-york",
    "stateCode": "NY",
    "rpp": 112.6,
    "rppHousing": 148.6,
    "averageRent1BR": 4430,
    "averageRent2BR": 5100,
    "medianHomePrice": 750000,
    "population": 19900000,
    "lat": 40.7128,
    "lng": -74.006
  },
  {
    "slug": "los-angeles-ca",
    "name": "Los Angeles",
    "fullName": "Los Angeles, CA",
    "state": "california",
    "stateCode": "CA",
    "rpp": 113.6,
    "rppHousing": 170.4,
    "averageRent1BR": 2295,
    "averageRent2BR": 2995,
    "medianHomePrice": 940000,
    "population": 13300000,
    "lat": 34.0522,
    "lng": -118.2437
  },
  {
    "slug": "chicago-il",
    "name": "Chicago",
    "fullName": "Chicago, IL",
    "state": "illinois",
    "stateCode": "IL",
    "rpp": 103.6,
    "rppHousing": 112.0,
    "averageRent1BR": 1975,
    "averageRent2BR": 2350,
    "medianHomePrice": 374000,
    "population": 9500000,
    "lat": 41.8781,
    "lng": -87.6298
  },
  {
    "slug": "houston-tx",
    "name": "Houston",
    "fullName": "Houston, TX",
    "state": "texas",
    "stateCode": "TX",
    "rpp": 98.6,
    "rppHousing": 104.5,
    "averageRent1BR": 1129,
    "averageRent2BR": 1390,
    "medianHomePrice": 335000,
    "population": 7800000,
    "lat": 29.7604,
    "lng": -95.3698
  },
  {
    "slug": "phoenix-az",
    "name": "Phoenix",
    "fullName": "Phoenix, AZ",
    "state": "arizona",
    "stateCode": "AZ",
    "rpp": 103.3,
    "rppHousing": 121.2,
    "averageRent1BR": 1195,
    "averageRent2BR": 1400,
    "medianHomePrice": 460000,
    "population": 5190000,
    "lat": 33.4484,
    "lng": -112.074
  },
  {
    "slug": "philadelphia-pa",
    "name": "Philadelphia",
    "fullName": "Philadelphia, PA",
    "state": "pennsylvania",
    "stateCode": "PA",
    "rpp": 102.6,
    "rppHousing": 113.1,
    "averageRent1BR": 1400,
    "averageRent2BR": 1699,
    "medianHomePrice": 400000,
    "population": 6330000,
    "lat": 39.9526,
    "lng": -75.1652
  },
  {
    "slug": "san-antonio-tx",
    "name": "San Antonio",
    "fullName": "San Antonio, TX",
    "state": "texas",
    "stateCode": "TX",
    "rpp": 94.7,
    "rppHousing": 94.6,
    "averageRent1BR": 979,
    "averageRent2BR": 1250,
    "medianHomePrice": 315000,
    "population": 2763000,
    "lat": 29.4241,
    "lng": -98.4936
  },
  {
    "slug": "san-diego-ca",
    "name": "San Diego",
    "fullName": "San Diego, CA",
    "state": "california",
    "stateCode": "CA",
    "rpp": 111.9,
    "rppHousing": 179.3,
    "averageRent1BR": 2195,
    "averageRent2BR": 2750,
    "medianHomePrice": 895000,
    "population": 3338000,
    "lat": 32.7157,
    "lng": -117.1611
  },
  {
    "slug": "dallas-tx",
    "name": "Dallas",
    "fullName": "Dallas, TX",
    "state": "texas",
    "stateCode": "TX",
    "rpp": 103.1,
    "rppHousing": 117.9,
    "averageRent1BR": 1392,
    "averageRent2BR": 1860,
    "medianHomePrice": 375000,
    "population": 8344000,
    "lat": 32.7767,
    "lng": -96.797
  },
  {
    "slug": "san-jose-ca",
    "name": "San Jose",
    "fullName": "San Jose, CA",
    "state": "california",
    "stateCode": "CA",
    "rpp": 110.4,
    "rppHousing": 211.9,
    "averageRent1BR": 2559,
    "averageRent2BR": 3307,
    "medianHomePrice": 1626000,
    "population": 1991000,
    "lat": 37.3382,
    "lng": -121.8863
  },
  {
    "slug": "austin-tx",
    "name": "Austin",
    "fullName": "Austin, TX",
    "state": "texas",
    "stateCode": "TX",
    "rpp": 98.1,
    "rppHousing": 120.4,
    "averageRent1BR": 1549,
    "averageRent2BR": 2018,
    "medianHomePrice": 400000,
    "population": 2473000,
    "lat": 30.2672,
    "lng": -97.7431
  },
  {
    "slug": "jacksonville-fl",
    "name": "Jacksonville",
    "fullName": "Jacksonville, FL",
    "state": "florida",
    "stateCode": "FL",
    "rpp": 99.5,
    "rppHousing": 109.8,
    "averageRent1BR": 1246,
    "averageRent2BR": 1379,
    "medianHomePrice": 282000,
    "population": 1560000,
    "lat": 30.3322,
    "lng": -81.6557
  },
  {
    "slug": "columbus-oh",
    "name": "Columbus",
    "fullName": "Columbus, OH",
    "state": "ohio",
    "stateCode": "OH",
    "rpp": 95.5,
    "rppHousing": 87.9,
    "averageRent1BR": 1191,
    "averageRent2BR": 1400,
    "medianHomePrice": 290000,
    "population": 2122000,
    "lat": 39.9612,
    "lng": -82.9988
  },
  {
    "slug": "charlotte-nc",
    "name": "Charlotte",
    "fullName": "Charlotte, NC",
    "state": "north-carolina",
    "stateCode": "NC",
    "rpp": 97.3,
    "rppHousing": 97.6,
    "averageRent1BR": 1440,
    "averageRent2BR": 1690,
    "medianHomePrice": 398000,
    "population": 2637000,
    "lat": 35.2271,
    "lng": -80.8431
  },
  {
    "slug": "indianapolis-in",
    "name": "Indianapolis",
    "fullName": "Indianapolis, IN",
    "state": "indiana",
    "stateCode": "IN",
    "rpp": 95.696,
    "rppHousing": 88.9,
    "averageRent1BR": 1020,
    "averageRent2BR": 1230,
    "medianHomePrice": 224000,
    "population": 1925000,
    "lat": 39.7684,
    "lng": -86.1581
  },
  {
    "slug": "san-francisco-ca",
    "name": "San Francisco",
    "fullName": "San Francisco, CA",
    "state": "california",
    "stateCode": "CA",
    "rpp": 115.6,
    "rppHousing": 194.7,
    "averageRent1BR": 3657,
    "averageRent2BR": 4995,
    "medianHomePrice": 1181000,
    "population": 4732000,
    "lat": 37.7749,
    "lng": -122.4194
  },
  {
    "slug": "seattle-wa",
    "name": "Seattle",
    "fullName": "Seattle, WA",
    "state": "washington",
    "stateCode": "WA",
    "rpp": 111.1,
    "rppHousing": 151.3,
    "averageRent1BR": 1937,
    "averageRent2BR": 2579,
    "medianHomePrice": 728000,
    "population": 3980000,
    "lat": 47.6062,
    "lng": -122.3321
  },
  {
    "slug": "denver-co",
    "name": "Denver",
    "fullName": "Denver, CO",
    "state": "colorado",
    "stateCode": "CO",
    "rpp": 105.782,
    "rppHousing": 146.9,
    "averageRent1BR": 1600,
    "averageRent2BR": 2100,
    "medianHomePrice": 570000,
    "population": 3000000,
    "lat": 39.7392,
    "lng": -104.9903
  },
  {
    "slug": "washington-dc",
    "name": "Washington DC",
    "fullName": "Washington, DC",
    "state": "district-of-columbia",
    "stateCode": "DC",
    "rpp": 108.884,
    "rppHousing": 151.1,
    "averageRent1BR": 2150,
    "averageRent2BR": 3050,
    "medianHomePrice": 620000,
    "population": 6300000,
    "lat": 38.9072,
    "lng": -77.0369
  },
  {
    "slug": "nashville-tn",
    "name": "Nashville",
    "fullName": "Nashville, TN",
    "state": "tennessee",
    "stateCode": "TN",
    "rpp": 96.338,
    "rppHousing": 104.6,
    "averageRent1BR": 1500,
    "averageRent2BR": 1950,
    "medianHomePrice": 460000,
    "population": 2150000,
    "lat": 36.1627,
    "lng": -86.7816
  },
  {
    "slug": "oklahoma-city-ok",
    "name": "Oklahoma City",
    "fullName": "Oklahoma City, OK",
    "state": "oklahoma",
    "stateCode": "OK",
    "rpp": 90.408,
    "rppHousing": 73.9,
    "averageRent1BR": 940,
    "averageRent2BR": 1120,
    "medianHomePrice": 260000,
    "population": 1500000,
    "lat": 35.4676,
    "lng": -97.5164
  },
  {
    "slug": "el-paso-tx",
    "name": "El Paso",
    "fullName": "El Paso, TX",
    "state": "texas",
    "stateCode": "TX",
    "rpp": 89.912,
    "rppHousing": 78.0,
    "averageRent1BR": 950,
    "averageRent2BR": 1150,
    "medianHomePrice": 225000,
    "population": 870000,
    "lat": 31.7619,
    "lng": -106.485
  },
  {
    "slug": "boston-ma",
    "name": "Boston",
    "fullName": "Boston, MA",
    "state": "massachusetts",
    "stateCode": "MA",
    "rpp": 108.266,
    "rppHousing": 148.4,
    "averageRent1BR": 2950,
    "averageRent2BR": 3600,
    "medianHomePrice": 825000,
    "population": 4370000,
    "lat": 42.3601,
    "lng": -71.0589
  },
  {
    "slug": "portland-or",
    "name": "Portland",
    "fullName": "Portland, OR",
    "state": "oregon",
    "stateCode": "OR",
    "rpp": 105.421,
    "rppHousing": 125.1,
    "averageRent1BR": 1550,
    "averageRent2BR": 1850,
    "medianHomePrice": 510000,
    "population": 2540000,
    "lat": 45.5152,
    "lng": -122.6784
  },
  {
    "slug": "las-vegas-nv",
    "name": "Las Vegas",
    "fullName": "Las Vegas, NV",
    "state": "nevada",
    "stateCode": "NV",
    "rpp": 100.215,
    "rppHousing": 115.5,
    "averageRent1BR": 1200,
    "averageRent2BR": 1500,
    "medianHomePrice": 450000,
    "population": 2300000,
    "lat": 36.1699,
    "lng": -115.1398
  },
  {
    "slug": "memphis-tn",
    "name": "Memphis",
    "fullName": "Memphis, TN",
    "state": "tennessee",
    "stateCode": "TN",
    "rpp": 92.179,
    "rppHousing": 79.8,
    "averageRent1BR": 950,
    "averageRent2BR": 1020,
    "medianHomePrice": 236000,
    "population": 1188000,
    "lat": 35.1495,
    "lng": -90.049
  },
  {
    "slug": "louisville-ky",
    "name": "Louisville",
    "fullName": "Louisville, KY",
    "state": "kentucky",
    "stateCode": "KY",
    "rpp": 93.074,
    "rppHousing": 78.6,
    "averageRent1BR": 1050,
    "averageRent2BR": 1280,
    "medianHomePrice": 280000,
    "population": 1394000,
    "lat": 38.2527,
    "lng": -85.7585
  },
  {
    "slug": "baltimore-md",
    "name": "Baltimore",
    "fullName": "Baltimore, MD",
    "state": "maryland",
    "stateCode": "MD",
    "rpp": 104.487,
    "rppHousing": 118.2,
    "averageRent1BR": 1250,
    "averageRent2BR": 1610,
    "medianHomePrice": 367000,
    "population": 2387000,
    "lat": 39.2904,
    "lng": -76.6122
  },
  {
    "slug": "milwaukee-wi",
    "name": "Milwaukee",
    "fullName": "Milwaukee, WI",
    "state": "wisconsin",
    "stateCode": "WI",
    "rpp": 96.937,
    "rppHousing": 97.1,
    "averageRent1BR": 1200,
    "averageRent2BR": 1500,
    "medianHomePrice": 290000,
    "population": 1560000,
    "lat": 43.0389,
    "lng": -87.9065
  },
  {
    "slug": "tucson-az",
    "name": "Tucson",
    "fullName": "Tucson, AZ",
    "state": "arizona",
    "stateCode": "AZ",
    "rpp": 96.896,
    "rppHousing": 91.8,
    "averageRent1BR": 1000,
    "averageRent2BR": 1300,
    "medianHomePrice": 360000,
    "population": 1087000,
    "lat": 32.2226,
    "lng": -110.9747
  },
  {
    "slug": "fresno-ca",
    "name": "Fresno",
    "fullName": "Fresno, CA",
    "state": "california",
    "stateCode": "CA",
    "rpp": 102.158,
    "rppHousing": 105.0,
    "averageRent1BR": 1300,
    "averageRent2BR": 1550,
    "medianHomePrice": 395000,
    "population": 1190000,
    "lat": 36.7378,
    "lng": -119.7871
  },
  {
    "slug": "sacramento-ca",
    "name": "Sacramento",
    "fullName": "Sacramento, CA",
    "state": "california",
    "stateCode": "CA",
    "rpp": 106.670,
    "rppHousing": 130.2,
    "averageRent1BR": 1600,
    "averageRent2BR": 1950,
    "medianHomePrice": 525000,
    "population": 2400000,
    "lat": 38.5816,
    "lng": -121.4944
  },
  {
    "slug": "kansas-city-mo",
    "name": "Kansas City",
    "fullName": "Kansas City, MO",
    "state": "missouri",
    "stateCode": "MO",
    "rpp": 92.543,
    "rppHousing": 86.6,
    "averageRent1BR": 1150,
    "averageRent2BR": 1400,
    "medianHomePrice": 300000,
    "population": 2254000,
    "lat": 39.0997,
    "lng": -94.5786
  },
  {
    "slug": "atlanta-ga",
    "name": "Atlanta",
    "fullName": "Atlanta, GA",
    "state": "georgia",
    "stateCode": "GA",
    "rpp": 100.058,
    "rppHousing": 111.0,
    "averageRent1BR": 1630,
    "averageRent2BR": 2020,
    "medianHomePrice": 411000,
    "population": 6272000,
    "lat": 33.749,
    "lng": -84.388
  },
  {
    "slug": "omaha-ne",
    "name": "Omaha",
    "fullName": "Omaha, NE",
    "state": "nebraska",
    "stateCode": "NE",
    "rpp": 91.911,
    "rppHousing": 86.4,
    "averageRent1BR": 1100,
    "averageRent2BR": 1400,
    "medianHomePrice": 290000,
    "population": 968000,
    "lat": 41.2565,
    "lng": -95.9345
  },
  {
    "slug": "colorado-springs-co",
    "name": "Colorado Springs",
    "fullName": "Colorado Springs, CO",
    "state": "colorado",
    "stateCode": "CO",
    "rpp": 100.707,
    "rppHousing": 116.2,
    "averageRent1BR": 1320,
    "averageRent2BR": 1580,
    "medianHomePrice": 475000,
    "population": 760000,
    "lat": 38.8339,
    "lng": -104.8214
  },
  {
    "slug": "raleigh-nc",
    "name": "Raleigh",
    "fullName": "Raleigh, NC",
    "state": "north-carolina",
    "stateCode": "NC",
    "rpp": 98.157,
    "rppHousing": 103.5,
    "averageRent1BR": 1240,
    "averageRent2BR": 1520,
    "medianHomePrice": 431000,
    "population": 1661000,
    "lat": 35.7796,
    "lng": -78.6382
  },
  {
    "slug": "miami-fl",
    "name": "Miami",
    "fullName": "Miami, FL",
    "state": "florida",
    "stateCode": "FL",
    "rpp": 114.155,
    "rppHousing": 155.6,
    "averageRent1BR": 2400,
    "averageRent2BR": 3030,
    "medianHomePrice": 575000,
    "population": 6372000,
    "lat": 25.7617,
    "lng": -80.1918
  },
  {
    "slug": "minneapolis-mn",
    "name": "Minneapolis",
    "fullName": "Minneapolis, MN",
    "state": "minnesota",
    "stateCode": "MN",
    "rpp": 104.822,
    "rppHousing": 111.8,
    "averageRent1BR": 1330,
    "averageRent2BR": 1750,
    "medianHomePrice": 327000,
    "population": 3039000,
    "lat": 44.9778,
    "lng": -93.265
  },
  {
    "slug": "tampa-fl",
    "name": "Tampa",
    "fullName": "Tampa, FL",
    "state": "florida",
    "stateCode": "FL",
    "rpp": 100.890,
    "rppHousing": 125.8,
    "averageRent1BR": 1500,
    "averageRent2BR": 1750,
    "medianHomePrice": 374000,
    "population": 3040000,
    "lat": 27.9506,
    "lng": -82.4572
  },
  {
    "slug": "new-orleans-la",
    "name": "New Orleans",
    "fullName": "New Orleans, LA",
    "state": "louisiana",
    "stateCode": "LA",
    "rpp": 92.597,
    "rppHousing": 86.0,
    "averageRent1BR": 1410,
    "averageRent2BR": 1710,
    "medianHomePrice": 243000,
    "population": 1030000,
    "lat": 29.9511,
    "lng": -90.0715
  },
  {
    "slug": "virginia-beach-va",
    "name": "Virginia Beach",
    "fullName": "Virginia Beach, VA",
    "state": "virginia",
    "stateCode": "VA",
    "rpp": 97.941,
    "rppHousing": 98.0,
    "averageRent1BR": 1630,
    "averageRent2BR": 1830,
    "medianHomePrice": 340000,
    "population": 1769000,
    "lat": 36.8529,
    "lng": -75.978
  },
  {
    "slug": "honolulu-hi",
    "name": "Honolulu",
    "fullName": "Honolulu, HI",
    "state": "hawaii",
    "stateCode": "HI",
    "rpp": 110.961,
    "rppHousing": 135.5,
    "averageRent1BR": 2210,
    "averageRent2BR": 3080,
    "medianHomePrice": 1142000,
    "population": 999000,
    "lat": 21.3069,
    "lng": -157.8583
  },
  {
    "slug": "st-louis-mo",
    "name": "St. Louis",
    "fullName": "St. Louis, MO",
    "state": "missouri",
    "stateCode": "MO",
    "rpp": 95.088,
    "rppHousing": 79.0,
    "averageRent1BR": 990,
    "averageRent2BR": 1330,
    "medianHomePrice": 235000,
    "population": 2820000,
    "lat": 38.627,
    "lng": -90.1994
  },
  {
    "slug": "pittsburgh-pa",
    "name": "Pittsburgh",
    "fullName": "Pittsburgh, PA",
    "state": "pennsylvania",
    "stateCode": "PA",
    "rpp": 94.671,
    "rppHousing": 72.0,
    "averageRent1BR": 1290,
    "averageRent2BR": 1560,
    "medianHomePrice": 252000,
    "population": 2371000,
    "lat": 40.4406,
    "lng": -79.9959
  },
  {
    "slug": "cincinnati-oh",
    "name": "Cincinnati",
    "fullName": "Cincinnati, OH",
    "state": "ohio",
    "stateCode": "OH",
    "rpp": 95.370,
    "rppHousing": 87.6,
    "averageRent1BR": 1080,
    "averageRent2BR": 1440,
    "medianHomePrice": 260000,
    "population": 2257000,
    "lat": 39.1031,
    "lng": -84.512
  },
  {
    "slug": "orlando-fl",
    "name": "Orlando",
    "fullName": "Orlando, FL",
    "state": "florida",
    "stateCode": "FL",
    "rpp": 101.418,
    "rppHousing": 123.4,
    "averageRent1BR": 1460,
    "averageRent2BR": 1740,
    "medianHomePrice": 385000,
    "population": 2941000,
    "lat": 28.5383,
    "lng": -81.3792
  },
  {
    "slug": "salt-lake-city-ut",
    "name": "Salt Lake City",
    "fullName": "Salt Lake City, UT",
    "state": "utah",
    "stateCode": "UT",
    "rpp": 100.868,
    "rppHousing": 123.3,
    "averageRent1BR": 1200,
    "averageRent2BR": 1540,
    "medianHomePrice": 572000,
    "population": 1301000,
    "lat": 40.7608,
    "lng": -111.891
  },
  {
    "slug": "birmingham-al",
    "name": "Birmingham",
    "fullName": "Birmingham, AL",
    "state": "alabama",
    "stateCode": "AL",
    "rpp": 91.644,
    "rppHousing": 71.9,
    "averageRent1BR": 1050,
    "averageRent2BR": 1150,
    "medianHomePrice": 230000,
    "population": 1115000,
    "lat": 33.5207,
    "lng": -86.8025
  },
  {
    "slug": "richmond-va",
    "name": "Richmond",
    "fullName": "Richmond, VA",
    "state": "virginia",
    "stateCode": "VA",
    "rpp": 97.858,
    "rppHousing": 99.1,
    "averageRent1BR": 1430,
    "averageRent2BR": 1600,
    "medianHomePrice": 360000,
    "population": 1370000,
    "lat": 37.5407,
    "lng": -77.436
  },
  {
    "slug": "boise-id",
    "name": "Boise",
    "fullName": "Boise, ID",
    "state": "idaho",
    "stateCode": "ID",
    "rpp": 98.391,
    "rppHousing": 105.6,
    "averageRent1BR": 1280,
    "averageRent2BR": 1450,
    "medianHomePrice": 500000,
    "population": 846000,
    "lat": 43.615,
    "lng": -116.2023
  }
]
